[
    [
        {
            "name": "Graz",
            "latitude": 47.0708678,
            "longitude": 15.4382786,
            "country": "AT",
            "state": "Styria"
        },
        {
            "name": "Грязь",
            "latitude": 55.7453386,
            "longitude": 36.9382814,
            "country": "RU",
            "state": "Moscow Oblast"
        }
    ],
    [
        {
            "name": "Innsbruck",
            "latitude": 47.2654296,
            "longitude": 11.3927685,
            "country": "AT",
            "state": "Tyrol"
        },
        {
            "name": "Innsbruck",
            "latitude": 47.26951525,
            "longitude": 11.397137204221064,
            "country": "AT",
            "state": "Tyrol"
        }
    ],
    [
        {
            "name": "Klagenfurt",
            "latitude": 46.623943,
            "longitude": 14.3075976,
            "country": "AT",
            "state": "Carinthia"
        }
    ],
    [
        {
            "name": "Linz",
            "latitude": 48.3059078,
            "longitude": 14.286198,
            "country": "AT",
            "state": "Upper Austria"
        },
        {
            "name": "Linz am Rhein",
            "latitude": 50.5662481,
            "longitude": 7.2812557,
            "country": "DE",
            "state": "Rhineland-Palatinate"
        },
        {
            "name": "Linz",
            "latitude": 46.7293787,
            "longitude": 14.0510624,
            "country": "AT",
            "state": "Carinthia"
        },
        {
            "name": "Linz",
            "latitude": 51.3414241,
            "longitude": 13.7345255,
            "country": "DE",
            "state": "Saxony"
        },
        {
            "name": "Mlýnec",
            "latitude": 49.4611518,
            "longitude": 12.8031147,
            "country": "CZ",
            "state": "Southwest"
        }
    ],
    [
        {
            "name": "Salzburg",
            "latitude": 47.7981346,
            "longitude": 13.0464806,
            "country": "AT",
            "state": "Salzburg"
        }
    ],
    [
        {
            "name": "Vienna",
            "latitude": 48.2083537,
            "longitude": 16.3725042,
            "country": "AT"
        }
    ],
    [
        {
            "name": "Antwerp",
            "latitude": 51.2211097,
            "longitude": 4.3997081,
            "country": "BE",
            "state": "Antwerp"
        },
        {
            "name": "Antwerp",
            "latitude": 51.2452978,
            "longitude": 4.382442306343581,
            "country": "BE",
            "state": "Antwerp"
        }
    ],
    [
        {
            "name": "Bruges",
            "latitude": 51.2085526,
            "longitude": 3.226772,
            "country": "BE",
            "state": "West Flanders"
        },
        {
            "name": "Brügge",
            "latitude": 54.1745029,
            "longitude": 10.0700752,
            "country": "DE",
            "state": "Schleswig-Holstein"
        },
        {
            "name": "Brugge",
            "latitude": 51.2315785,
            "longitude": 3.1917093323369112,
            "country": "BE",
            "state": "West Flanders"
        },
        {
            "name": "Ławy",
            "latitude": 52.9102863,
            "longitude": 14.9558985,
            "country": "PL",
            "state": "West Pomeranian Voivodeship"
        },
        {
            "name": "Brügge",
            "latitude": 51.2094897,
            "longitude": 7.5695126,
            "country": "DE",
            "state": "North Rhine-Westphalia"
        }
    ],
    [
        {
            "name": "Brussels",
            "latitude": 50.8465573,
            "longitude": 4.351697,
            "country": "BE"
        },
        {
            "name": "Brussels",
            "latitude": 50.8436353,
            "longitude": 4.367353745722238,
            "country": "BE"
        }
    ],
    [
        {
            "name": "Charleroi",
            "latitude": 50.4120332,
            "longitude": 4.4436244,
            "country": "BE",
            "state": "Hainaut"
        },
        {
            "name": "Charleroi",
            "latitude": 40.1378499,
            "longitude": -79.8981035,
            "country": "US",
            "state": "Pennsylvania"
        },
        {
            "name": "Charleroi",
            "latitude": 50.41691045,
            "longitude": 4.449383450756983,
            "country": "BE",
            "state": "Hainaut"
        },
        {
            "name": "Charleroi",
            "latitude": -36.3100575,
            "longitude": 147.1562522305028,
            "country": "AU",
            "state": "Victoria"
        }
    ],
    [],
    [
        {
            "name": "Kortrijk",
            "latitude": 50.8276429,
            "longitude": 3.2659884,
            "country": "BE",
            "state": "West Flanders"
        },
        {
            "name": "Kortrijk",
            "latitude": 50.8178514,
            "longitude": 3.2782925713131505,
            "country": "BE",
            "state": "West Flanders"
        },
        {
            "name": "Kortrijk-Dutsel",
            "latitude": 50.9260871,
            "longitude": 4.8059139,
            "country": "BE",
            "state": "Flemish Brabant"
        },
        {
            "name": "Kortrijk",
            "latitude": 52.1587224,
            "longitude": 4.9828639,
            "country": "NL",
            "state": "Utrecht"
        }
    ],
    [
        {
            "name": "Leuven",
            "latitude": 50.879202,
            "longitude": 4.7011675,
            "country": "BE",
            "state": "Flemish Brabant"
        },
        {
            "name": "Leuven",
            "latitude": 50.8812533,
            "longitude": 4.692990321518882,
            "country": "BE",
            "state": "Flemish Brabant"
        },
        {
            "name": "Leuven",
            "latitude": 51.844133,
            "longitude": 5.0942261,
            "country": "NL",
            "state": "Gelderland"
        }
    ],
    [
        {
            "name": "Liège",
            "latitude": 50.6450944,
            "longitude": 5.5736112,
            "country": "BE",
            "state": "Liège"
        }
    ],
    [],
    [
        {
            "name": "Namur",
            "latitude": 50.4665284,
            "longitude": 4.8661892,
            "country": "BE",
            "state": "Namur"
        },
        {
            "name": "Namur",
            "latitude": 50.45724185,
            "longitude": 4.849782469386653,
            "country": "BE",
            "state": "Namur"
        }
    ],
    [
        {
            "name": "кв. Вароша",
            "latitude": 42.02094955,
            "longitude": 23.103785098064854,
            "country": "BG"
        },
        {
            "name": "Blagoevgrad",
            "latitude": 42.0111077,
            "longitude": 23.0906457,
            "country": "BG"
        },
        {
            "name": "Blagoevgrad",
            "latitude": 41.970516,
            "longitude": 23.037132814054843,
            "country": "BG"
        }
    ],
    [
        {
            "name": "Burgas",
            "latitude": 42.4936616,
            "longitude": 27.4721276,
            "country": "BG"
        }
    ],
    [
        {
            "name": "Dobrich",
            "latitude": 43.5688397,
            "longitude": 27.8297415,
            "country": "BG"
        },
        {
            "name": "Dobrich",
            "latitude": 43.5743321,
            "longitude": 27.795188397704095,
            "country": "BG"
        },
        {
            "name": "Dobrich",
            "latitude": 42.02873,
            "longitude": 25.52178,
            "country": "BG"
        },
        {
            "name": "Dobrich",
            "latitude": 42.17507,
            "longitude": 26.66599,
            "country": "BG"
        }
    ],
    [
        {
            "name": "Haskovo",
            "latitude": 41.9345727,
            "longitude": 25.5556639,
            "country": "BG"
        },
        {
            "name": "Haskovo",
            "latitude": 41.8950535,
            "longitude": 25.60214695118345,
            "country": "BG"
        }
    ],
    [
        {
            "name": "Pazardzhik",
            "latitude": 42.1884549,
            "longitude": 24.3318993,
            "country": "BG"
        }
    ],
    [
        {
            "name": "Pernik",
            "latitude": 42.6092185,
            "longitude": 23.0309457,
            "country": "BG"
        },
        {
            "name": "Pernik",
            "latitude": 42.607608,
            "longitude": 23.00785822643678,
            "country": "BG"
        }
    ],
    [
        {
            "name": "Pleven",
            "latitude": 43.409022,
            "longitude": 24.6180123,
            "country": "BG"
        },
        {
            "name": "Pleven",
            "latitude": 43.3863705,
            "longitude": 24.60351782778453,
            "country": "BG"
        }
    ],
    [
        {
            "name": "Plovdiv",
            "latitude": 42.1418541,
            "longitude": 24.7499297,
            "country": "BG"
        },
        {
            "name": "Plovdiv",
            "latitude": 42.144523500000005,
            "longitude": 24.751046768934636,
            "country": "BG"
        }
    ],
    [
        {
            "name": "Ruse",
            "latitude": 43.8480413,
            "longitude": 25.9542057,
            "country": "BG"
        },
        {
            "name": "Ruse",
            "latitude": 43.8350657,
            "longitude": 25.957973495516235,
            "country": "BG"
        },
        {
            "name": "Ruse",
            "latitude": 43.8391064,
            "longitude": 26.088235257745055,
            "country": "BG"
        }
    ],
    [
        {
            "name": "Shumen",
            "latitude": 43.2703797,
            "longitude": 26.9247362,
            "country": "BG"
        },
        {
            "name": "Shumen",
            "latitude": 43.25210585,
            "longitude": 26.92206292630874,
            "country": "BG"
        }
    ],
    [
        {
            "name": "Sliven",
            "latitude": 42.6817633,
            "longitude": 26.3153528,
            "country": "BG"
        }
    ],
    [
        {
            "name": "Sofia",
            "latitude": 42.6977028,
            "longitude": 23.3217359,
            "country": "BG"
        }
    ],
    [
        {
            "name": "Stara Zagora",
            "latitude": 42.4248111,
            "longitude": 25.6257479,
            "country": "BG"
        },
        {
            "name": "Stara Zagora",
            "latitude": 42.3705205,
            "longitude": 25.57158193530669,
            "country": "BG"
        }
    ],
    [
        {
            "name": "Varna",
            "latitude": 43.2073873,
            "longitude": 27.9166653,
            "country": "BG"
        },
        {
            "name": "Varna",
            "latitude": 43.205205899999996,
            "longitude": 27.889831529417048,
            "country": "BG"
        }
    ],
    [
        {
            "name": "Veliko Tarnovo",
            "latitude": 43.0820584,
            "longitude": 25.6321312,
            "country": "BG"
        },
        {
            "name": "Veliko Tarnovo",
            "latitude": 43.024971,
            "longitude": 25.713472795617985,
            "country": "BG"
        }
    ],
    [
        {
            "name": "Vidin",
            "latitude": 43.9858809,
            "longitude": 22.8773117,
            "country": "BG"
        }
    ],
    [
        {
            "name": "Vratsa",
            "latitude": 43.2028209,
            "longitude": 23.548027,
            "country": "BG"
        },
        {
            "name": "Vratsa",
            "latitude": 43.300366,
            "longitude": 23.644359427141268,
            "country": "BG"
        }
    ],
    [
        {
            "name": "Basel",
            "latitude": 47.5581077,
            "longitude": 7.5878261,
            "country": "CH",
            "state": "Basel-City"
        }
    ],
    [
        {
            "name": "Bern",
            "latitude": 46.9482713,
            "longitude": 7.4514512,
            "country": "CH",
            "state": "Bern"
        }
    ],
    [
        {
            "name": "Geneva",
            "latitude": 46.2017559,
            "longitude": 6.1466014,
            "country": "CH",
            "state": "Geneva"
        }
    ],
    [
        {
            "name": "Lausanne",
            "latitude": 46.5218269,
            "longitude": 6.6327025,
            "country": "CH",
            "state": "Vaud"
        }
    ],
    [
        {
            "name": "Lugano",
            "latitude": 46.0050102,
            "longitude": 8.9520281,
            "country": "CH",
            "state": "Ticino"
        },
        {
            "name": "Lugano",
            "latitude": 0.5602213,
            "longitude": 33.9659934,
            "country": "UG",
            "state": "Bugiri"
        },
        {
            "name": "Lugano",
            "latitude": -19.8865462,
            "longitude": -44.9814606,
            "country": "BR",
            "state": "Minas Gerais"
        },
        {
            "name": "Lugano",
            "latitude": -18.5318978,
            "longitude": -59.3840543,
            "country": "BO",
            "state": "Santa Cruz"
        }
    ],
    [
        {
            "name": "Lucerne",
            "latitude": 47.0505452,
            "longitude": 8.3054682,
            "country": "CH",
            "state": "Lucerne"
        }
    ],
    [
        {
            "name": "St. Gallen",
            "latitude": 47.4250593,
            "longitude": 9.3765878,
            "country": "CH",
            "state": "St. Gallen"
        },
        {
            "name": "Sankt Gallen",
            "latitude": 47.6923547,
            "longitude": 14.6172935,
            "country": "AT",
            "state": "Styria"
        },
        {
            "name": "Saint-Gall",
            "latitude": 48.6906523,
            "longitude": 7.3282746,
            "country": "FR",
            "state": "Grand Est"
        }
    ],
    [
        {
            "name": "Winterthur",
            "latitude": 47.4991723,
            "longitude": 8.7291498,
            "country": "CH",
            "state": "Zurich"
        },
        {
            "name": "Winterthur",
            "latitude": 39.8028897,
            "longitude": -75.5915934,
            "country": "US",
            "state": "Delaware"
        }
    ],
    [
        {
            "name": "Zurich",
            "latitude": 47.3744489,
            "longitude": 8.5410422,
            "country": "CH",
            "state": "Zurich"
        }
    ],
    [
        {
            "name": "Nicosia",
            "latitude": 35.1748976,
            "longitude": 33.3638568,
            "country": "CY"
        },
        {
            "name": "Nicosia",
            "latitude": 35.1354615,
            "longitude": 33.35522913707338,
            "country": "CY",
            "state": "Cyprus"
        },
        {
            "name": "Nicosia Municipality",
            "latitude": 35.1769245,
            "longitude": 33.39244102069878,
            "country": "CY",
            "state": "Cyprus"
        }
    ],
    [
        {
            "name": "Limassol",
            "latitude": 34.6852901,
            "longitude": 33.0332657,
            "country": "CY",
            "state": "Cyprus"
        },
        {
            "name": "Limassol Municipality",
            "latitude": 34.69173535,
            "longitude": 33.029334281860216,
            "country": "CY",
            "state": "Cyprus"
        }
    ],
    [
        {
            "name": "Brno",
            "latitude": 49.1922443,
            "longitude": 16.6113382,
            "country": "CZ",
            "state": "Southeast"
        }
    ],
    [
        {
            "name": "České Budějovice",
            "latitude": 48.9747357,
            "longitude": 14.474285,
            "country": "CZ",
            "state": "Southwest"
        }
    ],
    [],
    [
        {
            "name": "Havířov",
            "latitude": 49.7801136,
            "longitude": 18.4368451,
            "country": "CZ",
            "state": "Moravia-Silesia"
        }
    ],
    [
        {
            "name": "Hradec Králové",
            "latitude": 50.2092113,
            "longitude": 15.8327512,
            "country": "CZ",
            "state": "Northeast"
        },
        {
            "name": "Hradec Králové",
            "latitude": 50.21055935,
            "longitude": 15.833324420152948,
            "country": "CZ",
            "state": "Northeast"
        }
    ],
    [
        {
            "name": "Jihlava",
            "latitude": 49.396064,
            "longitude": 15.5903065,
            "country": "CZ",
            "state": "Southeast"
        },
        {
            "name": "Jihlava",
            "latitude": 49.40218405,
            "longitude": 15.590350240383003,
            "country": "CZ",
            "state": "Southeast"
        }
    ],
    [
        {
            "name": "Karlovy Vary",
            "latitude": 50.2306147,
            "longitude": 12.8699868,
            "country": "CZ",
            "state": "Northwest"
        },
        {
            "name": "Karlovy Vary",
            "latitude": 50.2185446,
            "longitude": 12.86982384303787,
            "country": "CZ",
            "state": "Northwest"
        }
    ],
    [
        {
            "name": "Karviná",
            "latitude": 49.8542719,
            "longitude": 18.5416556,
            "country": "CZ",
            "state": "Moravia-Silesia"
        }
    ],
    [
        {
            "name": "Kladno",
            "latitude": 50.1478497,
            "longitude": 14.1025379,
            "country": "CZ",
            "state": "Central Bohemia"
        },
        {
            "name": "Kladno",
            "latitude": 49.7724743,
            "longitude": 15.9822811,
            "country": "CZ",
            "state": "Northeast"
        },
        {
            "name": "Kladno",
            "latitude": 50.14861315,
            "longitude": 14.08821824009715,
            "country": "CZ",
            "state": "Central Bohemia"
        }
    ],
    [
        {
            "name": "Liberec",
            "latitude": 50.7702648,
            "longitude": 15.0583947,
            "country": "CZ",
            "state": "Northeast"
        },
        {
            "name": "Liberec",
            "latitude": 50.7681847,
            "longitude": 15.064300336724564,
            "country": "CZ",
            "state": "Northeast"
        }
    ],
    [
        {
            "name": "Most",
            "latitude": 50.5032737,
            "longitude": 13.636112,
            "country": "CZ",
            "state": "Northwest"
        }
    ],
    [
        {
            "name": "Olomouc",
            "latitude": 49.5940567,
            "longitude": 17.251143,
            "country": "CZ",
            "state": "Central Moravia"
        }
    ],
    [
        {
            "name": "Ostrava",
            "latitude": 49.8349139,
            "longitude": 18.2820084,
            "country": "CZ",
            "state": "Moravia-Silesia"
        }
    ],
    [
        {
            "name": "Pardubice",
            "latitude": 50.0385812,
            "longitude": 15.7791356,
            "country": "CZ",
            "state": "Northeast"
        },
        {
            "name": "Pardubice",
            "latitude": 50.038673,
            "longitude": 15.772175133599298,
            "country": "CZ",
            "state": "Northeast"
        }
    ],
    [
        {
            "name": "Plzeň",
            "latitude": 49.7477415,
            "longitude": 13.3775249,
            "country": "CZ",
            "state": "Southwest"
        },
        {
            "name": "Plzeň",
            "latitude": 49.74633155,
            "longitude": 13.378013301889663,
            "country": "CZ",
            "state": "Southwest"
        }
    ],
    [
        {
            "name": "Prague",
            "latitude": 50.0874654,
            "longitude": 14.4212535,
            "country": "CZ",
            "state": "Prague"
        },
        {
            "name": "Prague",
            "latitude": 50.0596288,
            "longitude": 14.446459273258009,
            "country": "CZ",
            "state": "Prague"
        }
    ],
    [
        {
            "name": "Ústí nad Labem",
            "latitude": 50.6603327,
            "longitude": 14.0381357,
            "country": "CZ",
            "state": "Northwest"
        },
        {
            "name": "Ústí nad Labem",
            "latitude": 50.661707050000004,
            "longitude": 14.038626769863043,
            "country": "CZ",
            "state": "Northwest"
        }
    ],
    [
        {
            "name": "Zlín",
            "latitude": 49.226766,
            "longitude": 17.6667415,
            "country": "CZ",
            "state": "Central Moravia"
        },
        {
            "name": "Zlín",
            "latitude": 49.22461485,
            "longitude": 17.67220179600917,
            "country": "CZ",
            "state": "Central Moravia"
        }
    ],
    [
        {
            "name": "Aachen",
            "latitude": 50.776351,
            "longitude": 6.083862,
            "country": "DE",
            "state": "North Rhine-Westphalia"
        },
        {
            "name": "Aachen",
            "latitude": 47.4806385,
            "longitude": 9.4298253,
            "country": "CH",
            "state": "St. Gallen"
        }
    ],
    [
        {
            "name": "Aschaffenburg",
            "latitude": 49.9740542,
            "longitude": 9.1493636,
            "country": "DE",
            "state": "Bavaria"
        }
    ],
    [
        {
            "name": "Augsburg",
            "latitude": 48.3668041,
            "longitude": 10.8986971,
            "country": "DE",
            "state": "Bavaria"
        },
        {
            "name": "Augsburg",
            "latitude": 54.5033271,
            "longitude": 9.1026652,
            "country": "DE",
            "state": "Schleswig-Holstein"
        },
        {
            "name": "Augsburg",
            "latitude": 38.8667134,
            "longitude": -89.0133951,
            "country": "US",
            "state": "Illinois"
        },
        {
            "name": "Augsburg",
            "latitude": 35.4145271,
            "longitude": -93.2382324,
            "country": "US",
            "state": "Arkansas"
        },
        {
            "name": "Augsburg",
            "latitude": 6.2086834,
            "longitude": -57.5382013,
            "country": "GY",
            "state": "Mahaica-Berbice"
        }
    ],
    [
        {
            "name": "Bamberg",
            "latitude": 49.8916044,
            "longitude": 10.8868478,
            "country": "DE",
            "state": "Bavaria"
        },
        {
            "name": "Bamberg",
            "latitude": 33.2971012,
            "longitude": -81.0348202,
            "country": "US",
            "state": "South Carolina"
        },
        {
            "name": "Bamberg",
            "latitude": 51.11037,
            "longitude": 7.6341877,
            "country": "DE",
            "state": "North Rhine-Westphalia"
        },
        {
            "name": "Bamberg",
            "latitude": -17.7381495,
            "longitude": -41.3258654,
            "country": "BR",
            "state": "Minas Gerais"
        },
        {
            "name": "Bamberg",
            "latitude": 43.4890733,
            "longitude": -80.6884279,
            "country": "CA",
            "state": "Ontario"
        }
    ],
    [
        {
            "name": "Bayreuth",
            "latitude": 49.9427202,
            "longitude": 11.5763079,
            "country": "DE",
            "state": "Bavaria"
        }
    ],
    [
        {
            "name": "Berlin",
            "latitude": 52.5170365,
            "longitude": 13.3888599,
            "country": "DE"
        },
        {
            "name": "Berlin",
            "latitude": 54.0363605,
            "longitude": 10.4461313,
            "country": "DE",
            "state": "Schleswig-Holstein"
        }
    ],
    [
        {
            "name": "Bielefeld",
            "latitude": 52.0191005,
            "longitude": 8.531007,
            "country": "DE",
            "state": "North Rhine-Westphalia"
        }
    ],
    [
        {
            "name": "Bochum",
            "latitude": 51.4818111,
            "longitude": 7.2196635,
            "country": "DE",
            "state": "North Rhine-Westphalia"
        },
        {
            "name": "Innenstadt",
            "latitude": 51.4818145,
            "longitude": 7.2196633,
            "country": "DE",
            "state": "North Rhine-Westphalia"
        },
        {
            "name": "Senwabarwana",
            "latitude": -23.2852698,
            "longitude": 29.1379755,
            "country": "ZA",
            "state": "Limpopo"
        }
    ],
    [
        {
            "name": "Bonn",
            "latitude": 50.735851,
            "longitude": 7.10066,
            "country": "DE",
            "state": "North Rhine-Westphalia"
        },
        {
            "name": "Bouin",
            "latitude": 46.9744444,
            "longitude": -2.0005556,
            "country": "FR",
            "state": "Pays de la Loire"
        },
        {
            "name": "Bonn",
            "latitude": -36.413079499999995,
            "longitude": 144.71829220435205,
            "country": "AU",
            "state": "Victoria"
        },
        {
            "name": "Bonn",
            "latitude": 39.5314626,
            "longitude": -81.3853969,
            "country": "US",
            "state": "Ohio"
        },
        {
            "name": "Bonn",
            "latitude": 30.6540748,
            "longitude": -91.2517763,
            "country": "US",
            "state": "Louisiana"
        }
    ],
    [
        {
            "name": "Bottrop",
            "latitude": 51.521581,
            "longitude": 6.929204,
            "country": "DE",
            "state": "North Rhine-Westphalia"
        }
    ],
    [
        {
            "name": "Brandenburg an der Havel",
            "latitude": 52.4108261,
            "longitude": 12.5497933,
            "country": "DE",
            "state": "Brandenburg"
        }
    ],
    [
        {
            "name": "Brunswick",
            "latitude": 52.2646577,
            "longitude": 10.5236066,
            "country": "DE",
            "state": "Lower Saxony"
        },
        {
            "name": "Braunschweig",
            "latitude": -27.2897222,
            "longitude": 30.6722222,
            "country": "ZA",
            "state": "KwaZulu-Natal"
        },
        {
            "name": "Braunschweig",
            "latitude": -32.7984876,
            "longitude": 27.3708638,
            "country": "ZA",
            "state": "Eastern Cape"
        }
    ],
    [
        {
            "name": "Bremen",
            "latitude": 53.0758196,
            "longitude": 8.8071646,
            "country": "DE",
            "state": "Free Hanseatic City of Bremen"
        },
        {
            "name": "Bremen",
            "latitude": 51.5033219,
            "longitude": 7.9576538,
            "country": "DE",
            "state": "North Rhine-Westphalia"
        },
        {
            "name": "Bremen",
            "latitude": 51.501508349999995,
            "longitude": 7.9509845833767425,
            "country": "DE",
            "state": "North Rhine-Westphalia"
        },
        {
            "name": "Bremen",
            "latitude": 51.0814232,
            "longitude": 7.1730371,
            "country": "DE",
            "state": "North Rhine-Westphalia"
        },
        {
            "name": "Bremen",
            "latitude": 50.724998,
            "longitude": 10.0034611,
            "country": "DE",
            "state": "Thuringia"
        }
    ],
    [
        {
            "name": "Bremerhaven",
            "latitude": 53.5505392,
            "longitude": 8.5851945,
            "country": "DE",
            "state": "Free Hanseatic City of Bremen"
        }
    ],
    [
        {
            "name": "Celle",
            "latitude": 52.624056,
            "longitude": 10.081052,
            "country": "DE",
            "state": "Lower Saxony"
        },
        {
            "name": "Celle",
            "latitude": 42.9147601,
            "longitude": 12.8502827,
            "country": "IT",
            "state": "Umbria"
        },
        {
            "name": "Cellé",
            "latitude": 47.834152,
            "longitude": 0.7833092,
            "country": "FR",
            "state": "Centre-Val de Loire"
        },
        {
            "name": "Celle",
            "latitude": 45.1315068,
            "longitude": 7.344715,
            "country": "IT",
            "state": "Piedmont"
        },
        {
            "name": "Celle",
            "latitude": 45.5885272,
            "longitude": 2.0647362,
            "country": "FR",
            "state": "Nouvelle-Aquitaine"
        }
    ],
    [
        {
            "name": "Chemnitz",
            "latitude": 50.8322608,
            "longitude": 12.9252977,
            "country": "DE",
            "state": "Saxony"
        },
        {
            "name": "Chemnitz",
            "latitude": 53.5818753,
            "longitude": 13.1529978,
            "country": "DE",
            "state": "Mecklenburg-Vorpommern"
        }
    ],
    [
        {
            "name": "Cottbus - Chóśebuz",
            "latitude": 51.7567447,
            "longitude": 14.3357307,
            "country": "DE",
            "state": "Brandenburg"
        },
        {
            "name": "Cottbus",
            "latitude": 36.6497833,
            "longitude": -91.8482044,
            "country": "US",
            "state": "Missouri"
        }
    ],
    [
        {
            "name": "Darmstadt",
            "latitude": 49.8851869,
            "longitude": 8.6736295,
            "country": "DE",
            "state": "Hesse"
        },
        {
            "name": "Darmstadt",
            "latitude": 49.872775,
            "longitude": 8.651177,
            "country": "DE",
            "state": "Hesse"
        },
        {
            "name": "Darmstadt",
            "latitude": 38.0992098,
            "longitude": -87.5789075,
            "country": "US",
            "state": "Indiana"
        },
        {
            "name": "Darmstadt",
            "latitude": 38.3208818,
            "longitude": -89.7317643,
            "country": "US",
            "state": "Illinois"
        }
    ],
    [],
    [
        {
            "name": "Dortmund",
            "latitude": 51.5142273,
            "longitude": 7.4652789,
            "country": "DE",
            "state": "North Rhine-Westphalia"
        }
    ],
    [
        {
            "name": "Dresden",
            "latitude": 51.0493286,
            "longitude": 13.7381437,
            "country": "DE",
            "state": "Saxony"
        },
        {
            "name": "Dresden",
            "latitude": 39.619125,
            "longitude": -100.4187658671272,
            "country": "US",
            "state": "Kansas"
        },
        {
            "name": "Village of Dresden",
            "latitude": 42.6839586,
            "longitude": -76.9557968,
            "country": "US",
            "state": "New York"
        },
        {
            "name": "Town of Dresden",
            "latitude": 43.672564,
            "longitude": -73.4106709,
            "country": "US",
            "state": "New York"
        },
        {
            "name": "Dresden",
            "latitude": 36.2914512,
            "longitude": -88.7081123,
            "country": "US",
            "state": "Tennessee"
        }
    ],
    [
        {
            "name": "Duisburg",
            "latitude": 51.434999,
            "longitude": 6.759562,
            "country": "DE",
            "state": "North Rhine-Westphalia"
        },
        {
            "name": "Duisburg",
            "latitude": 50.8162511,
            "longitude": 4.5532764,
            "country": "BE",
            "state": "Flemish Brabant"
        }
    ],
    [
        {
            "name": "Dusseldorf",
            "latitude": 51.2254018,
            "longitude": 6.7763137,
            "country": "DE",
            "state": "North Rhine-Westphalia"
        }
    ],
    [
        {
            "name": "Erfurt",
            "latitude": 50.9777974,
            "longitude": 11.0287364,
            "country": "DE",
            "state": "Thuringia"
        }
    ],
    [
        {
            "name": "Erlangen",
            "latitude": 49.5928616,
            "longitude": 11.0056,
            "country": "DE",
            "state": "Bavaria"
        }
    ],
    [
        {
            "name": "Essen",
            "latitude": 51.4582235,
            "longitude": 7.0158171,
            "country": "DE",
            "state": "North Rhine-Westphalia"
        },
        {
            "name": "Essen (Oldenburg)",
            "latitude": 52.722488,
            "longitude": 7.9352306,
            "country": "DE",
            "state": "Lower Saxony"
        },
        {
            "name": "Essen",
            "latitude": 52.775182,
            "longitude": 9.0474385,
            "country": "DE",
            "state": "Lower Saxony"
        }
    ],
    [
        {
            "name": "Esslingen am Neckar",
            "latitude": 48.7427584,
            "longitude": 9.3071685,
            "country": "DE",
            "state": "Baden-Württemberg"
        }
    ],
    [
        {
            "name": "Flensburg",
            "latitude": 54.7833021,
            "longitude": 9.4333264,
            "country": "DE",
            "state": "Schleswig-Holstein"
        },
        {
            "name": "Flensburg",
            "latitude": 45.9552432,
            "longitude": -94.5350089,
            "country": "US",
            "state": "Minnesota"
        },
        {
            "name": "Flensburg",
            "latitude": 55.582307549999996,
            "longitude": 13.002187245492008,
            "country": "SE"
        }
    ],
    [
        {
            "name": "Frankenthal (Pfalz)",
            "latitude": 49.5445804,
            "longitude": 8.3540061,
            "country": "DE",
            "state": "Rhineland-Palatinate"
        }
    ],
    [
        {
            "name": "Frankfurt (Oder)",
            "latitude": 52.3412273,
            "longitude": 14.549452,
            "country": "DE",
            "state": "Brandenburg"
        }
    ],
    [
        {
            "name": "Frankfurt",
            "latitude": 50.1106444,
            "longitude": 8.6820917,
            "country": "DE",
            "state": "Hesse"
        }
    ],
    [
        {
            "name": "Freiburg im Breisgau",
            "latitude": 47.9960901,
            "longitude": 7.8494005,
            "country": "DE",
            "state": "Baden-Württemberg"
        }
    ],
    [
        {
            "name": "Friedrichshafen",
            "latitude": 47.6500279,
            "longitude": 9.4800858,
            "country": "DE",
            "state": "Baden-Württemberg"
        }
    ],
    [
        {
            "name": "Fulda",
            "latitude": 50.5542328,
            "longitude": 9.6770448,
            "country": "DE",
            "state": "Hesse"
        },
        {
            "name": "Fulda",
            "latitude": 43.8705186,
            "longitude": -95.6002856,
            "country": "US",
            "state": "Minnesota"
        },
        {
            "name": "Fulda",
            "latitude": 38.1114441,
            "longitude": -86.8361027,
            "country": "US",
            "state": "Indiana"
        },
        {
            "name": "Fulda",
            "latitude": 33.6873256,
            "longitude": -99.023124,
            "country": "US",
            "state": "Texas"
        },
        {
            "name": "Fulda",
            "latitude": 52.3483528,
            "longitude": -105.2189009,
            "country": "CA",
            "state": "Saskatchewan"
        }
    ],
    [
        {
            "name": "Fürth",
            "latitude": 49.4772475,
            "longitude": 10.9893626,
            "country": "DE",
            "state": "Bavaria"
        },
        {
            "name": "Fürth",
            "latitude": 49.6477624,
            "longitude": 8.7762994,
            "country": "DE",
            "state": "Hesse"
        },
        {
            "name": "Furth",
            "latitude": 48.5915163,
            "longitude": 12.0212216,
            "country": "DE",
            "state": "Bavaria"
        },
        {
            "name": "Fürth",
            "latitude": 49.418138150000004,
            "longitude": 7.240504238932888,
            "country": "DE",
            "state": "Saarland"
        },
        {
            "name": "Gemeinde Furth an der Triesting",
            "latitude": 47.9730092,
            "longitude": 15.9735087,
            "country": "AT",
            "state": "Lower Austria"
        }
    ],
    [
        {
            "name": "Gelsenkirchen",
            "latitude": 51.5110321,
            "longitude": 7.0960124,
            "country": "DE",
            "state": "North Rhine-Westphalia"
        }
    ],
    [
        {
            "name": "Gera",
            "latitude": -1.2497213,
            "longitude": 31.736903467533757,
            "country": "TZ",
            "state": "Kagera"
        }
    ],
    [
        {
            "name": "Gießen",
            "latitude": 50.5862066,
            "longitude": 8.6742306,
            "country": "DE",
            "state": "Hesse"
        },
        {
            "name": "Gießen",
            "latitude": 47.6848577,
            "longitude": 9.8985818,
            "country": "DE",
            "state": "Baden-Württemberg"
        },
        {
            "name": "Gießen",
            "latitude": 48.2224666,
            "longitude": 12.5157295,
            "country": "DE",
            "state": "Bavaria"
        },
        {
            "name": "Gießen",
            "latitude": 47.6266622,
            "longitude": 9.6003559,
            "country": "DE",
            "state": "Baden-Württemberg"
        },
        {
            "name": "Giessen",
            "latitude": 51.7910191,
            "longitude": 5.0318616,
            "country": "NL",
            "state": "North Brabant"
        }
    ],
    [
        {
            "name": "Görlitz",
            "latitude": 51.1563185,
            "longitude": 14.991018,
            "country": "DE",
            "state": "Saxony"
        },
        {
            "name": "Beiersdorf",
            "latitude": 51.0712291,
            "longitude": 14.5355575,
            "country": "DE",
            "state": "Saxony"
        },
        {
            "name": "Gorlice",
            "latitude": 49.6663323,
            "longitude": 21.16348426717198,
            "country": "PL",
            "state": "Lesser Poland Voivodeship"
        },
        {
            "name": "Gorlice",
            "latitude": 49.65829,
            "longitude": 21.1593832,
            "country": "PL",
            "state": "Lesser Poland Voivodeship"
        },
        {
            "name": "Zgorzelec",
            "latitude": 51.1476999,
            "longitude": 15.0079028,
            "country": "PL",
            "state": "Lower Silesian Voivodeship"
        }
    ],
    [
        {
            "name": "Göttingen",
            "latitude": 51.5328328,
            "longitude": 9.9351811,
            "country": "DE",
            "state": "Lower Saxony"
        },
        {
            "name": "Göttingen",
            "latitude": 50.8756738,
            "longitude": 8.776117,
            "country": "DE",
            "state": "Hesse"
        },
        {
            "name": "Göttingen",
            "latitude": 48.473839,
            "longitude": 10.0822111,
            "country": "DE",
            "state": "Baden-Württemberg"
        },
        {
            "name": "Göttingen",
            "latitude": 51.6658584,
            "longitude": 8.2328045,
            "country": "DE",
            "state": "North Rhine-Westphalia"
        }
    ],
    [
        {
            "name": "Hagen",
            "latitude": 51.3582945,
            "longitude": 7.473296,
            "country": "DE",
            "state": "North Rhine-Westphalia"
        },
        {
            "name": "Hagen",
            "latitude": 49.4982,
            "longitude": 6.1722,
            "country": "FR",
            "state": "Grand Est"
        },
        {
            "name": "Hagen",
            "latitude": 53.9466992,
            "longitude": 9.8274028,
            "country": "DE",
            "state": "Schleswig-Holstein"
        },
        {
            "name": "Haegen",
            "latitude": 48.7145092,
            "longitude": 7.3400003,
            "country": "FR",
            "state": "Grand Est"
        },
        {
            "name": "Hagen im Bremischen",
            "latitude": 53.3576972,
            "longitude": 8.645642,
            "country": "DE",
            "state": "Lower Saxony"
        }
    ],
    [],
    [
        {
            "name": "Hamburg",
            "latitude": 53.550341,
            "longitude": 10.000654,
            "country": "DE"
        }
    ],
    [
        {
            "name": "Hamm Court",
            "latitude": 51.3798835,
            "longitude": -0.4651175,
            "country": "GB",
            "state": "England"
        }
    ],
    [
        {
            "name": "Hanau",
            "latitude": 50.132881,
            "longitude": 8.9169797,
            "country": "DE",
            "state": "Hesse"
        },
        {
            "name": "Hanau",
            "latitude": 48.1194978,
            "longitude": 15.4588648,
            "country": "AT",
            "state": "Lower Austria"
        },
        {
            "name": "Hanau",
            "latitude": 49.039612,
            "longitude": 6.1064044,
            "country": "FR",
            "state": "Grand Est"
        }
    ],
    [
        {
            "name": "Hanover",
            "latitude": 52.3744779,
            "longitude": 9.7385532,
            "country": "DE",
            "state": "Lower Saxony"
        },
        {
            "name": "Hannover",
            "latitude": 47.1113877,
            "longitude": -101.42654,
            "country": "US",
            "state": "North Dakota"
        },
        {
            "name": "Hanover Island",
            "latitude": -50.91396365,
            "longitude": -74.75892212502819,
            "country": "CL",
            "state": "Region of Magallanes and Chilean Antarctica"
        },
        {
            "name": "Hannöver",
            "latitude": 53.1744699,
            "longitude": 8.5068393,
            "country": "DE",
            "state": "Lower Saxony"
        }
    ],
    [
        {
            "name": "Heidelberg",
            "latitude": 49.4093582,
            "longitude": 8.694724,
            "country": "DE",
            "state": "Baden-Württemberg"
        },
        {
            "name": "Heidelberg",
            "latitude": 44.4913526,
            "longitude": -93.6263443,
            "country": "US",
            "state": "Minnesota"
        },
        {
            "name": "Heidelberg",
            "latitude": -37.7524788,
            "longitude": 145.0701284,
            "country": "AU",
            "state": "Victoria"
        },
        {
            "name": "Heidelberg",
            "latitude": 40.3921671,
            "longitude": -80.0910519,
            "country": "US",
            "state": "Pennsylvania"
        },
        {
            "name": "Heidelberg",
            "latitude": -34.089958,
            "longitude": 20.9585895,
            "country": "ZA",
            "state": "Western Cape"
        }
    ],
    [
        {
            "name": "Heilbronn",
            "latitude": 49.142291,
            "longitude": 9.218655,
            "country": "DE",
            "state": "Baden-Württemberg"
        },
        {
            "name": "Heilbronn",
            "latitude": 49.1674159,
            "longitude": 10.3611071,
            "country": "DE",
            "state": "Bavaria"
        },
        {
            "name": "Heilbronn",
            "latitude": 30.0191286,
            "longitude": -82.1506634,
            "country": "US",
            "state": "Florida"
        }
    ],
    [
        {
            "name": "Herne",
            "latitude": 51.5380394,
            "longitude": 7.219985,
            "country": "DE",
            "state": "North Rhine-Westphalia"
        },
        {
            "name": "Herne",
            "latitude": 50.72329555,
            "longitude": 4.026011566349657,
            "country": "BE",
            "state": "Flemish Brabant"
        },
        {
            "name": "Herne",
            "latitude": 50.7248836,
            "longitude": 4.0281753,
            "country": "BE",
            "state": "Flemish Brabant"
        },
        {
            "name": "Herne",
            "latitude": 51.3503509,
            "longitude": 1.1337922,
            "country": "GB",
            "state": "England"
        },
        {
            "name": "Herne",
            "latitude": 48.2167095,
            "longitude": 8.0580318,
            "country": "DE",
            "state": "Baden-Württemberg"
        }
    ],
    [
        {
            "name": "Hildesheim",
            "latitude": 52.1521636,
            "longitude": 9.9513046,
            "country": "DE",
            "state": "Lower Saxony"
        },
        {
            "name": "Mierczany",
            "latitude": 52.28363,
            "longitude": 14.92797,
            "country": "PL",
            "state": "Lubusz Voivodeship"
        }
    ],
    [
        {
            "name": "Ingolstadt",
            "latitude": 48.7630165,
            "longitude": 11.4250395,
            "country": "DE",
            "state": "Bavaria"
        },
        {
            "name": "Ingolstadt",
            "latitude": 49.6041303,
            "longitude": 10.3791304,
            "country": "DE",
            "state": "Bavaria"
        }
    ],
    [
        {
            "name": "Iserlohn",
            "latitude": 51.3746778,
            "longitude": 7.6999713,
            "country": "DE",
            "state": "North Rhine-Westphalia"
        }
    ],
    [
        {
            "name": "Jena",
            "latitude": 50.9281717,
            "longitude": 11.5879359,
            "country": "DE",
            "state": "Thuringia"
        },
        {
            "name": "Jena",
            "latitude": 45.6025604,
            "longitude": 22.0750721,
            "country": "RO"
        },
        {
            "name": "Jena",
            "latitude": 31.6832271,
            "longitude": -92.1337448,
            "country": "US",
            "state": "Louisiana"
        },
        {
            "name": "Jena",
            "latitude": 3.4967417,
            "longitude": 31.276845,
            "country": "UG",
            "state": "Yumbe"
        },
        {
            "name": "Jena",
            "latitude": 35.6548018,
            "longitude": -84.1557459,
            "country": "US",
            "state": "Tennessee"
        }
    ],
    [
        {
            "name": "Kaiserslautern",
            "latitude": 49.4432174,
            "longitude": 7.7689951,
            "country": "DE",
            "state": "Rhineland-Palatinate"
        }
    ],
    [
        {
            "name": "Karlsruhe",
            "latitude": 49.0068705,
            "longitude": 8.4034195,
            "country": "DE",
            "state": "Baden-Württemberg"
        },
        {
            "name": "Karlsruhe",
            "latitude": 48.090006,
            "longitude": -100.62042,
            "country": "US",
            "state": "North Dakota"
        },
        {
            "name": "Karlsruhe",
            "latitude": -22.3078691,
            "longitude": -59.8838775,
            "country": "PY",
            "state": "Boquerón"
        },
        {
            "name": "Karlsruhe",
            "latitude": 52.9143854,
            "longitude": 12.1875071,
            "country": "DE",
            "state": "Brandenburg"
        },
        {
            "name": "Karlsruhe",
            "latitude": 51.1525337,
            "longitude": 7.2931264,
            "country": "DE",
            "state": "North Rhine-Westphalia"
        }
    ],
    [
        {
            "name": "Kassel",
            "latitude": 51.3154546,
            "longitude": 9.4924096,
            "country": "DE",
            "state": "Hesse"
        },
        {
            "name": "Cassel",
            "latitude": 50.8000011,
            "longitude": 2.4868314,
            "country": "FR",
            "state": "Hauts-de-France"
        },
        {
            "name": "Kassel",
            "latitude": 12.8763384,
            "longitude": -16.6983016,
            "country": "SN"
        },
        {
            "name": "Velykokomarivka",
            "latitude": 47.088333,
            "longitude": 29.645176,
            "country": "UA",
            "state": "Odesa Oblast"
        },
        {
            "name": "Kassel",
            "latitude": 50.2072683,
            "longitude": 9.2791463,
            "country": "DE",
            "state": "Hesse"
        }
    ],
    [
        {
            "name": "Kempten (Allgäu)",
            "latitude": 47.7267063,
            "longitude": 10.3168835,
            "country": "DE",
            "state": "Bavaria"
        }
    ],
    [
        {
            "name": "Kiel",
            "latitude": 54.3227085,
            "longitude": 10.135555,
            "country": "DE",
            "state": "Schleswig-Holstein"
        },
        {
            "name": "Kiel",
            "latitude": 43.912493,
            "longitude": -88.0356515,
            "country": "US",
            "state": "Wisconsin"
        },
        {
            "name": "Kiel",
            "latitude": 51.1895013,
            "longitude": 4.379055,
            "country": "BE",
            "state": "Antwerp"
        },
        {
            "name": "Kiel",
            "latitude": 11.6,
            "longitude": 9.85,
            "country": "NG",
            "state": "Bauchi State"
        },
        {
            "name": "Kiel",
            "latitude": 14.8740285,
            "longitude": -16.8045836,
            "country": "SN"
        }
    ],
    [
        {
            "name": "Koblenz",
            "latitude": 50.3533278,
            "longitude": 7.5943951,
            "country": "DE",
            "state": "Rhineland-Palatinate"
        },
        {
            "name": "Koblenz",
            "latitude": 47.6088321,
            "longitude": 8.2386953,
            "country": "CH",
            "state": "Aargau"
        },
        {
            "name": "Koblenz",
            "latitude": 50.8934714,
            "longitude": 12.4736411,
            "country": "DE",
            "state": "Thuringia"
        },
        {
            "name": "Koblenz - Koblicy",
            "latitude": 51.3759134,
            "longitude": 14.3277806,
            "country": "DE",
            "state": "Saxony"
        }
    ],
    [
        {
            "name": "Cologne",
            "latitude": 50.938361,
            "longitude": 6.959974,
            "country": "DE",
            "state": "North Rhine-Westphalia"
        },
        {
            "name": "Kolonia",
            "latitude": 49.4234773,
            "longitude": 20.3076741,
            "country": "PL",
            "state": "Lesser Poland Voivodeship"
        }
    ],
    [
        {
            "name": "Constance",
            "latitude": 47.659216,
            "longitude": 9.1750718,
            "country": "DE",
            "state": "Baden-Württemberg"
        }
    ],
    [
        {
            "name": "Krefeld",
            "latitude": 51.3331205,
            "longitude": 6.5623343,
            "country": "DE",
            "state": "North Rhine-Westphalia"
        }
    ],
    [
        {
            "name": "Landshut",
            "latitude": 48.536217,
            "longitude": 12.1516551,
            "country": "DE",
            "state": "Bavaria"
        },
        {
            "name": "Łańcut",
            "latitude": 50.069594949999995,
            "longitude": 22.233505598976215,
            "country": "PL",
            "state": "Subcarpathian Voivodeship"
        },
        {
            "name": "Łańcut",
            "latitude": 50.0690725,
            "longitude": 22.2320924,
            "country": "PL",
            "state": "Subcarpathian Voivodeship"
        },
        {
            "name": "Landshut",
            "latitude": 48.4545764,
            "longitude": 14.8056644,
            "country": "AT",
            "state": "Upper Austria"
        },
        {
            "name": "Landshut",
            "latitude": 48.2782459,
            "longitude": 12.7628084,
            "country": "DE",
            "state": "Bavaria"
        }
    ],
    [
        {
            "name": "Leipzig",
            "latitude": 51.3406321,
            "longitude": 12.3747329,
            "country": "DE",
            "state": "Saxony"
        },
        {
            "name": "Serpneve",
            "latitude": 46.3040235,
            "longitude": 29.0183844,
            "country": "UA",
            "state": "Odesa Oblast"
        },
        {
            "name": "Leipzig",
            "latitude": 52.1857124,
            "longitude": -108.6748325,
            "country": "CA",
            "state": "Saskatchewan"
        },
        {
            "name": "Leipzig",
            "latitude": 49.1379318,
            "longitude": 6.0543551,
            "country": "FR",
            "state": "Grand Est"
        },
        {
            "name": "Lipnik",
            "latitude": 54.3816556,
            "longitude": 18.5581457,
            "country": "PL",
            "state": "Pomeranian Voivodeship"
        }
    ],
    [
        {
            "name": "Leverkusen",
            "latitude": 51.0324743,
            "longitude": 6.9881194,
            "country": "DE",
            "state": "North Rhine-Westphalia"
        },
        {
            "name": "Leverkusen",
            "latitude": 51.172891,
            "longitude": 7.2650802,
            "country": "DE",
            "state": "North Rhine-Westphalia"
        }
    ],
    [
        {
            "name": "Lübeck",
            "latitude": 53.866444,
            "longitude": 10.684738,
            "country": "DE",
            "state": "Schleswig-Holstein"
        },
        {
            "name": "Lubeck",
            "latitude": 39.224339,
            "longitude": -81.62387522727272,
            "country": "US",
            "state": "West Virginia"
        },
        {
            "name": "Lubeck",
            "latitude": -36.747581499999995,
            "longitude": 142.55017638448157,
            "country": "AU",
            "state": "Victoria"
        },
        {
            "name": "Lubeck",
            "latitude": -36.7461395,
            "longitude": 142.5505686,
            "country": "AU",
            "state": "Victoria"
        },
        {
            "name": "Lubeck",
            "latitude": 39.2353534,
            "longitude": -81.6312384,
            "country": "US",
            "state": "West Virginia"
        }
    ],
    [
        {
            "name": "Ludwigsburg",
            "latitude": 48.8953937,
            "longitude": 9.1895147,
            "country": "DE",
            "state": "Baden-Württemberg"
        },
        {
            "name": "Ludwigsburg",
            "latitude": 53.3575516,
            "longitude": 13.986560923924731,
            "country": "DE",
            "state": "Brandenburg"
        },
        {
            "name": "Ludwigsburg",
            "latitude": 54.1073274,
            "longitude": 13.5082444,
            "country": "DE",
            "state": "Mecklenburg-Vorpommern"
        },
        {
            "name": "Ludwigsburg",
            "latitude": 53.3537834,
            "longitude": 13.9837803,
            "country": "DE",
            "state": "Brandenburg"
        },
        {
            "name": "Ludwigsburg",
            "latitude": 54.5133252,
            "longitude": 9.9319813,
            "country": "DE",
            "state": "Schleswig-Holstein"
        }
    ],
    [
        {
            "name": "Ludwigshafen am Rhein",
            "latitude": 49.4704113,
            "longitude": 8.4381568,
            "country": "DE",
            "state": "Rhineland-Palatinate"
        }
    ],
    [
        {
            "name": "Lüneburg",
            "latitude": 53.248706,
            "longitude": 10.407855,
            "country": "DE",
            "state": "Lower Saxony"
        },
        {
            "name": "Lüneburg",
            "latitude": -27.3146724,
            "longitude": 30.6175876,
            "country": "ZA",
            "state": "KwaZulu-Natal"
        }
    ],
    [
        {
            "name": "Magdeburg",
            "latitude": 52.1315889,
            "longitude": 11.6399609,
            "country": "DE",
            "state": "Saxony-Anhalt"
        },
        {
            "name": "Magdeburg",
            "latitude": 59.2230249,
            "longitude": 13.0158799,
            "country": "SE"
        }
    ],
    [
        {
            "name": "Mainz",
            "latitude": 50.0012314,
            "longitude": 8.2762513,
            "country": "DE",
            "state": "Rhineland-Palatinate"
        },
        {
            "name": "Mainz",
            "latitude": 47.839482,
            "longitude": 11.9584248,
            "country": "DE",
            "state": "Bavaria"
        }
    ],
    [
        {
            "name": "Mannheim",
            "latitude": 49.4892913,
            "longitude": 8.4673098,
            "country": "DE",
            "state": "Baden-Württemberg"
        },
        {
            "name": "Mannheim",
            "latitude": 43.3982436,
            "longitude": -80.5454816,
            "country": "CA",
            "state": "Ontario"
        },
        {
            "name": "Kamianka",
            "latitude": 46.63147,
            "longitude": 30.24193,
            "country": "UA",
            "state": "Odesa Oblast"
        }
    ],
    [
        {
            "name": "Marburg",
            "latitude": 50.8090106,
            "longitude": 8.7704695,
            "country": "DE",
            "state": "Hesse"
        },
        {
            "name": "Marburg",
            "latitude": -27.5620455,
            "longitude": 152.5839921024758,
            "country": "AU",
            "state": "Queensland"
        },
        {
            "name": "Marburg",
            "latitude": -27.5645733,
            "longitude": 152.5971808,
            "country": "AU",
            "state": "Queensland"
        },
        {
            "name": "Marburg",
            "latitude": 39.7848232,
            "longitude": -76.8858105,
            "country": "US",
            "state": "Pennsylvania"
        },
        {
            "name": "Marburg",
            "latitude": -30.7405556,
            "longitude": 30.4230556,
            "country": "ZA",
            "state": "KwaZulu-Natal"
        }
    ],
    [
        {
            "name": "Moers",
            "latitude": 51.451283,
            "longitude": 6.62843,
            "country": "DE",
            "state": "North Rhine-Westphalia"
        },
        {
            "name": "Moers",
            "latitude": 51.438876199999996,
            "longitude": 6.624873598784484,
            "country": "DE",
            "state": "North Rhine-Westphalia"
        }
    ],
    [
        {
            "name": "Mönchengladbach",
            "latitude": 51.1946983,
            "longitude": 6.4353641,
            "country": "DE",
            "state": "North Rhine-Westphalia"
        }
    ],
    [
        {
            "name": "Mülheim an der Ruhr",
            "latitude": 51.4272925,
            "longitude": 6.8829192,
            "country": "DE",
            "state": "North Rhine-Westphalia"
        }
    ],
    [
        {
            "name": "Munich",
            "latitude": 48.1371079,
            "longitude": 11.5753822,
            "country": "DE",
            "state": "Bavaria"
        },
        {
            "name": "München",
            "latitude": 48.6970972,
            "longitude": 13.4635084,
            "country": "DE",
            "state": "Bavaria"
        },
        {
            "name": "München",
            "latitude": 51.6066028,
            "longitude": 13.3125927,
            "country": "DE",
            "state": "Brandenburg"
        },
        {
            "name": "München",
            "latitude": 50.8699757,
            "longitude": 11.2535193,
            "country": "DE",
            "state": "Thuringia"
        },
        {
            "name": "München",
            "latitude": 49.5560714,
            "longitude": 11.580791,
            "country": "DE",
            "state": "Bavaria"
        }
    ],
    [],
    [
        {
            "name": "Neubrandenburg",
            "latitude": 53.5574458,
            "longitude": 13.2602781,
            "country": "DE",
            "state": "Mecklenburg-Vorpommern"
        }
    ],
    [
        {
            "name": "Neumünster",
            "latitude": 54.0757442,
            "longitude": 9.9815377,
            "country": "DE",
            "state": "Schleswig-Holstein"
        },
        {
            "name": "Neumünster",
            "latitude": 54.0847618,
            "longitude": 9.9626567,
            "country": "DE",
            "state": "Schleswig-Holstein"
        },
        {
            "name": "Neumünster",
            "latitude": 49.4021973,
            "longitude": 7.1727223,
            "country": "DE",
            "state": "Saarland"
        },
        {
            "name": "Neumünster",
            "latitude": 48.4414134,
            "longitude": 10.558144,
            "country": "DE",
            "state": "Bavaria"
        },
        {
            "name": "Neumünster",
            "latitude": 47.9652182,
            "longitude": 11.8266032,
            "country": "DE",
            "state": "Bavaria"
        }
    ],
    [
        {
            "name": "Neuss",
            "latitude": 51.1981778,
            "longitude": 6.6916476,
            "country": "DE",
            "state": "North Rhine-Westphalia"
        }
    ],
    [
        {
            "name": "Neu-Ulm",
            "latitude": 48.3954965,
            "longitude": 10.00589,
            "country": "DE",
            "state": "Bavaria"
        }
    ],
    [
        {
            "name": "Nuremberg",
            "latitude": 49.453872,
            "longitude": 11.077298,
            "country": "DE",
            "state": "Bavaria"
        },
        {
            "name": "Norberčany",
            "latitude": 49.7539506,
            "longitude": 17.5062373,
            "country": "CZ",
            "state": "Central Moravia"
        },
        {
            "name": "Nürnberg",
            "latitude": 48.3619187,
            "longitude": 12.9118642,
            "country": "DE",
            "state": "Bavaria"
        }
    ],
    [
        {
            "name": "Oberhausen",
            "latitude": 51.4696137,
            "longitude": 6.8514435,
            "country": "DE",
            "state": "North Rhine-Westphalia"
        },
        {
            "name": "Oberhausen",
            "latitude": 49.0982792,
            "longitude": 8.0567911,
            "country": "DE",
            "state": "Rhineland-Palatinate"
        },
        {
            "name": "Oberhausen",
            "latitude": 47.7773919,
            "longitude": 11.1322337,
            "country": "DE",
            "state": "Bavaria"
        },
        {
            "name": "Oberhausen",
            "latitude": 48.7197029,
            "longitude": 11.1117174,
            "country": "DE",
            "state": "Bavaria"
        },
        {
            "name": "Oberhausen",
            "latitude": 48.3940498,
            "longitude": 10.879888,
            "country": "DE",
            "state": "Bavaria"
        }
    ],
    [
        {
            "name": "Offenbach am Main",
            "latitude": 50.1055002,
            "longitude": 8.7610698,
            "country": "DE",
            "state": "Hesse"
        }
    ],
    [
        {
            "name": "Offenburg",
            "latitude": 48.4716556,
            "longitude": 7.944378,
            "country": "DE",
            "state": "Baden-Württemberg"
        },
        {
            "name": "Baia de Arieș",
            "latitude": 46.3802511,
            "longitude": 23.2812063,
            "country": "RO"
        }
    ],
    [
        {
            "name": "Oldenburg",
            "latitude": 53.1389753,
            "longitude": 8.2146017,
            "country": "DE",
            "state": "Lower Saxony"
        }
    ],
    [
        {
            "name": "Osnabrück",
            "latitude": 52.2719595,
            "longitude": 8.047635,
            "country": "DE",
            "state": "Lower Saxony"
        }
    ],
    [
        {
            "name": "Paderborn",
            "latitude": 51.71895955,
            "longitude": 8.764869778177559,
            "country": "DE",
            "state": "North Rhine-Westphalia"
        },
        {
            "name": "Paderborn",
            "latitude": 51.7177044,
            "longitude": 8.752653,
            "country": "DE",
            "state": "North Rhine-Westphalia"
        },
        {
            "name": "Paderborn",
            "latitude": 38.3603288,
            "longitude": -90.0426078,
            "country": "US",
            "state": "Illinois"
        }
    ],
    [
        {
            "name": "Passau",
            "latitude": 48.5748229,
            "longitude": 13.4609744,
            "country": "DE",
            "state": "Bavaria"
        },
        {
            "name": "Passau",
            "latitude": 46.6806662,
            "longitude": 12.9481688,
            "country": "AT",
            "state": "Carinthia"
        },
        {
            "name": "Passau",
            "latitude": 46.499274,
            "longitude": 2.4837769,
            "country": "FR",
            "state": "Auvergne-Rhône-Alpes"
        }
    ],
    [
        {
            "name": "Pforzheim",
            "latitude": 48.8908846,
            "longitude": 8.7029532,
            "country": "DE",
            "state": "Baden-Württemberg"
        }
    ],
    [
        {
            "name": "Plauen",
            "latitude": 50.4950632,
            "longitude": 12.1346523,
            "country": "DE",
            "state": "Saxony"
        },
        {
            "name": "Plauen",
            "latitude": 51.026885,
            "longitude": 13.70813763950722,
            "country": "DE",
            "state": "Saxony"
        },
        {
            "name": "Plauen",
            "latitude": 51.0277699,
            "longitude": 13.7098359,
            "country": "DE",
            "state": "Saxony"
        },
        {
            "name": "Plauen",
            "latitude": 51.0220881,
            "longitude": 13.724519760010647,
            "country": "DE",
            "state": "Saxony"
        }
    ],
    [
        {
            "name": "Potsdam",
            "latitude": 52.4009309,
            "longitude": 13.0591397,
            "country": "DE",
            "state": "Brandenburg"
        },
        {
            "name": "Village of Potsdam",
            "latitude": 44.6697996,
            "longitude": -74.9813349,
            "country": "US",
            "state": "New York"
        },
        {
            "name": "Town of Potsdam",
            "latitude": 44.6697996,
            "longitude": -74.9813349,
            "country": "US",
            "state": "New York"
        },
        {
            "name": "Potsdam",
            "latitude": 39.9633855,
            "longitude": -84.4174489,
            "country": "US",
            "state": "Ohio"
        },
        {
            "name": "Potsdam",
            "latitude": 54.4026687,
            "longitude": 9.4328681,
            "country": "DE",
            "state": "Schleswig-Holstein"
        }
    ],
    [
        {
            "name": "Recklinghausen",
            "latitude": 51.6143815,
            "longitude": 7.1978546,
            "country": "DE",
            "state": "North Rhine-Westphalia"
        },
        {
            "name": "Recklinghausen (Sauerland)",
            "latitude": 51.3096802,
            "longitude": 8.0218035,
            "country": "DE",
            "state": "North Rhine-Westphalia"
        },
        {
            "name": "Recklinghausen",
            "latitude": 51.0484853,
            "longitude": 7.4694124,
            "country": "DE",
            "state": "North Rhine-Westphalia"
        }
    ],
    [
        {
            "name": "Regensburg",
            "latitude": 49.0195333,
            "longitude": 12.0974869,
            "country": "DE",
            "state": "Bavaria"
        }
    ],
    [
        {
            "name": "Remscheid",
            "latitude": 51.1798706,
            "longitude": 7.1943544,
            "country": "DE",
            "state": "North Rhine-Westphalia"
        }
    ],
    [
        {
            "name": "Reutlingen",
            "latitude": 48.4919508,
            "longitude": 9.2114144,
            "country": "DE",
            "state": "Baden-Württemberg"
        },
        {
            "name": "Reutlingen",
            "latitude": 48.48896015,
            "longitude": 9.209780881912135,
            "country": "DE",
            "state": "Baden-Württemberg"
        },
        {
            "name": "Reutlingen",
            "latitude": 47.5282022,
            "longitude": 8.7514132,
            "country": "CH",
            "state": "Zurich"
        }
    ],
    [
        {
            "name": "Rostock",
            "latitude": 54.0924445,
            "longitude": 12.1286127,
            "country": "DE",
            "state": "Mecklenburg-Vorpommern"
        },
        {
            "name": "Rostock",
            "latitude": 57.9083333,
            "longitude": 12.0085778,
            "country": "SE"
        },
        {
            "name": "Rostock",
            "latitude": 56.648772,
            "longitude": 15.590047,
            "country": "SE"
        },
        {
            "name": "Rostock",
            "latitude": 57.0262983,
            "longitude": 16.0552418,
            "country": "SE"
        },
        {
            "name": "Rostock",
            "latitude": 46.8245592,
            "longitude": 15.1092018,
            "country": "AT",
            "state": "Styria"
        }
    ],
    [
        {
            "name": "Saarbrücken",
            "latitude": 49.234362,
            "longitude": 6.996379,
            "country": "DE",
            "state": "Saarland"
        }
    ],
    [
        {
            "name": "Salzgitter",
            "latitude": 52.1503721,
            "longitude": 10.3593147,
            "country": "DE",
            "state": "Lower Saxony"
        }
    ],
    [
        {
            "name": "Schweinfurt",
            "latitude": 50.0499945,
            "longitude": 10.233302,
            "country": "DE",
            "state": "Bavaria"
        }
    ],
    [
        {
            "name": "Schwerin",
            "latitude": 53.6288297,
            "longitude": 11.4148038,
            "country": "DE",
            "state": "Mecklenburg-Vorpommern"
        },
        {
            "name": "Schwerin",
            "latitude": 52.1519075,
            "longitude": 13.6295711,
            "country": "DE",
            "state": "Brandenburg"
        },
        {
            "name": "Schwerin",
            "latitude": 51.542171,
            "longitude": 7.3337169,
            "country": "DE",
            "state": "North Rhine-Westphalia"
        },
        {
            "name": "Schwerin",
            "latitude": 52.1923697,
            "longitude": 13.8749867,
            "country": "DE",
            "state": "Brandenburg"
        }
    ],
    [
        {
            "name": "Siegen",
            "latitude": 50.8749804,
            "longitude": 8.0227233,
            "country": "DE",
            "state": "North Rhine-Westphalia"
        },
        {
            "name": "Siegen",
            "latitude": 48.9573176,
            "longitude": 8.0427704,
            "country": "FR",
            "state": "Grand Est"
        },
        {
            "name": "Siegen",
            "latitude": 50.8740216,
            "longitude": 8.0269288,
            "country": "DE",
            "state": "North Rhine-Westphalia"
        }
    ],
    [
        {
            "name": "Solingen",
            "latitude": 51.1721629,
            "longitude": 7.0845893,
            "country": "DE",
            "state": "North Rhine-Westphalia"
        }
    ],
    [
        {
            "name": "Speyer",
            "latitude": 49.3165553,
            "longitude": 8.433615,
            "country": "DE",
            "state": "Rhineland-Palatinate"
        }
    ],
    [
        {
            "name": "Stralsund",
            "latitude": 54.3096314,
            "longitude": 13.0820846,
            "country": "DE",
            "state": "Mecklenburg-Vorpommern"
        },
        {
            "name": "Stralsund",
            "latitude": 58.9185451,
            "longitude": 14.1068449,
            "country": "SE"
        },
        {
            "name": "Strålsund",
            "latitude": 59.1738361,
            "longitude": 10.9247222,
            "country": "NO"
        },
        {
            "name": "Strålsund",
            "latitude": 58.7128273,
            "longitude": 16.3524021,
            "country": "SE"
        },
        {
            "name": "Strålsund",
            "latitude": 58.1106033,
            "longitude": 14.1741882,
            "country": "SE"
        }
    ],
    [
        {
            "name": "Stuttgart",
            "latitude": 48.7784485,
            "longitude": 9.1800132,
            "country": "DE",
            "state": "Baden-Württemberg"
        },
        {
            "name": "Stuttgart",
            "latitude": 34.5003748,
            "longitude": -91.5526281,
            "country": "US",
            "state": "Arkansas"
        },
        {
            "name": "Stuttgart",
            "latitude": 39.7994535,
            "longitude": -99.4553798,
            "country": "US",
            "state": "Kansas"
        }
    ],
    [
        {
            "name": "Trier",
            "latitude": 49.7596208,
            "longitude": 6.6441878,
            "country": "DE",
            "state": "Rhineland-Palatinate"
        },
        {
            "name": "Триер",
            "latitude": 55.6684746,
            "longitude": 46.377412,
            "country": "RU",
            "state": "Chuvashia"
        }
    ],
    [
        {
            "name": "Tübingen",
            "latitude": 48.5236164,
            "longitude": 9.0535531,
            "country": "DE",
            "state": "Baden-Württemberg"
        }
    ],
    [
        {
            "name": "Ulm",
            "latitude": 48.3974003,
            "longitude": 9.9934336,
            "country": "DE",
            "state": "Baden-Württemberg"
        },
        {
            "name": "Oulmes",
            "latitude": 46.4005556,
            "longitude": -0.6625,
            "country": "FR",
            "state": "Pays de la Loire"
        },
        {
            "name": "Ulm",
            "latitude": 45.7875783,
            "longitude": 22.7508379,
            "country": "RO"
        },
        {
            "name": "Ulm",
            "latitude": 47.4327687,
            "longitude": -111.5056584,
            "country": "US",
            "state": "Montana"
        },
        {
            "name": "Ulm",
            "latitude": 48.7276553,
            "longitude": 8.0150864,
            "country": "DE",
            "state": "Baden-Württemberg"
        }
    ],
    [
        {
            "name": "Villingen-Schwenningen",
            "latitude": 48.0632359,
            "longitude": 8.4945022,
            "country": "DE",
            "state": "Baden-Württemberg"
        }
    ],
    [
        {
            "name": "Weimar",
            "latitude": 50.9810486,
            "longitude": 11.3296637,
            "country": "DE",
            "state": "Thuringia"
        },
        {
            "name": "Weimar",
            "latitude": 29.7030098,
            "longitude": -96.7805399,
            "country": "US",
            "state": "Texas"
        },
        {
            "name": "Weimar (Lahn)",
            "latitude": 50.7542308,
            "longitude": 8.7111101,
            "country": "DE",
            "state": "Hesse"
        },
        {
            "name": "Weimar",
            "latitude": 39.0373968,
            "longitude": -120.9724425,
            "country": "US",
            "state": "California"
        },
        {
            "name": "Weimar",
            "latitude": 51.3651222,
            "longitude": 9.3917415,
            "country": "DE",
            "state": "Hesse"
        }
    ],
    [
        {
            "name": "Wetzlar",
            "latitude": 50.5525346,
            "longitude": 8.5074406,
            "country": "DE",
            "state": "Hesse"
        },
        {
            "name": "Wetzlar",
            "latitude": 50.55318955,
            "longitude": 8.503944561431187,
            "country": "DE",
            "state": "Hesse"
        },
        {
            "name": "Wetzlar",
            "latitude": 31.6454463,
            "longitude": -92.8570999,
            "country": "US",
            "state": "Louisiana"
        }
    ],
    [
        {
            "name": "Wiesbaden",
            "latitude": 50.0820384,
            "longitude": 8.2416556,
            "country": "DE",
            "state": "Hesse"
        }
    ],
    [
        {
            "name": "Witten",
            "latitude": 51.4370171,
            "longitude": 7.335124,
            "country": "DE",
            "state": "North Rhine-Westphalia"
        },
        {
            "name": "Witten",
            "latitude": 43.4394432,
            "longitude": -100.0795709,
            "country": "US",
            "state": "South Dakota"
        },
        {
            "name": "Witten",
            "latitude": 52.9816627,
            "longitude": 6.5167455,
            "country": "NL",
            "state": "Drenthe"
        },
        {
            "name": "Wityń",
            "latitude": 52.2709264,
            "longitude": 15.6099354,
            "country": "PL",
            "state": "Lubusz Voivodeship"
        }
    ],
    [
        {
            "name": "Wolfsburg",
            "latitude": 52.4205588,
            "longitude": 10.7861682,
            "country": "DE",
            "state": "Lower Saxony"
        },
        {
            "name": "Wolfsburg",
            "latitude": 40.0464693,
            "longitude": -78.5297402,
            "country": "US",
            "state": "Pennsylvania"
        }
    ],
    [
        {
            "name": "Wuppertal",
            "latitude": 51.264018,
            "longitude": 7.1780374,
            "country": "DE",
            "state": "North Rhine-Westphalia"
        },
        {
            "name": "Wupperthal",
            "latitude": -32.276708,
            "longitude": 19.215107,
            "country": "ZA",
            "state": "Western Cape"
        }
    ],
    [
        {
            "name": "Würzburg",
            "latitude": 49.79245,
            "longitude": 9.932966,
            "country": "DE",
            "state": "Bavaria"
        }
    ],
    [
        {
            "name": "Zwickau",
            "latitude": 50.7185043,
            "longitude": 12.4939267,
            "country": "DE",
            "state": "Saxony"
        }
    ],
    [
        {
            "name": "Aalborg",
            "latitude": 57.0462626,
            "longitude": 9.9215263,
            "country": "DK",
            "state": "North Denmark Region"
        }
    ],
    [
        {
            "name": "Aarhus",
            "latitude": 56.1496278,
            "longitude": 10.2134046,
            "country": "DK",
            "state": "Central Denmark Region"
        },
        {
            "name": "Århus",
            "latitude": 59.5956533,
            "longitude": 6.7938344,
            "country": "NO"
        },
        {
            "name": "Århus",
            "latitude": 59.5340667,
            "longitude": 10.7058639,
            "country": "NO"
        },
        {
            "name": "Århus",
            "latitude": 59.5206672,
            "longitude": 8.6511109,
            "country": "NO"
        },
        {
            "name": "Århus",
            "latitude": 59.2277574,
            "longitude": 9.5752844,
            "country": "NO"
        }
    ],
    [
        {
            "name": "Copenhagen",
            "latitude": 55.6867243,
            "longitude": 12.5700724,
            "country": "DK",
            "state": "Capital Region of Denmark"
        },
        {
            "name": "København",
            "latitude": 60.9602612,
            "longitude": 10.5479237,
            "country": "NO"
        }
    ],
    [
        {
            "name": "Odense",
            "latitude": 55.3997225,
            "longitude": 10.3852104,
            "country": "DK",
            "state": "Region of Southern Denmark"
        },
        {
            "name": "Odense",
            "latitude": 37.7031007,
            "longitude": -95.2519248,
            "country": "US",
            "state": "Kansas"
        }
    ],
    [
        {
            "name": "Narva",
            "latitude": 59.3766729,
            "longitude": 28.1921457,
            "country": "EE"
        },
        {
            "name": "Narva",
            "latitude": 20.889314249999998,
            "longitude": 79.89538883868936,
            "country": "IN",
            "state": "Maharashtra"
        },
        {
            "name": "Narva",
            "latitude": 61.295197,
            "longitude": 23.5024826,
            "country": "FI"
        },
        {
            "name": "Narva",
            "latitude": 20.8948974,
            "longitude": 79.8946838,
            "country": "IN",
            "state": "Maharashtra"
        },
        {
            "name": "Narva",
            "latitude": 18.8550387,
            "longitude": 79.5651871,
            "country": "IN",
            "state": "Telangana"
        }
    ],
    [
        {
            "name": "Tallinn",
            "latitude": 59.4372155,
            "longitude": 24.7453688,
            "country": "EE"
        },
        {
            "name": "Tallinn",
            "latitude": 59.4250354,
            "longitude": 24.74386926051089,
            "country": "EE"
        },
        {
            "name": "Tallinn",
            "latitude": 47.1836354,
            "longitude": 20.2087891,
            "country": "HU"
        }
    ],
    [
        {
            "name": "Tartu",
            "latitude": 58.3801207,
            "longitude": 26.72245,
            "country": "EE"
        },
        {
            "name": "Tartu linn",
            "latitude": 58.395645349999995,
            "longitude": 26.630885501668523,
            "country": "EE"
        }
    ],
    [
        {
            "name": "A Coruña",
            "latitude": 43.3709703,
            "longitude": -8.3959425,
            "country": "ES",
            "state": "Galicia"
        },
        {
            "name": "A Coruña",
            "latitude": 43.370643,
            "longitude": -8.401225,
            "country": "ES",
            "state": "Galicia"
        },
        {
            "name": "A Coruña",
            "latitude": 43.013187,
            "longitude": -8.6249125,
            "country": "ES",
            "state": "Galicia"
        }
    ],
    [
        {
            "name": "Albacete",
            "latitude": 38.9950921,
            "longitude": -1.8559154,
            "country": "ES",
            "state": "Castile-La Mancha"
        }
    ],
    [
        {
            "name": "Alcalá de Henares",
            "latitude": 40.4818396,
            "longitude": -3.3644973,
            "country": "ES",
            "state": "Community of Madrid"
        }
    ],
    [
        {
            "name": "Alcobendas",
            "latitude": 40.5400082,
            "longitude": -3.6358494,
            "country": "ES",
            "state": "Community of Madrid"
        }
    ],
    [
        {
            "name": "Alcorcón",
            "latitude": 40.3492998,
            "longitude": -3.8284295,
            "country": "ES",
            "state": "Community of Madrid"
        }
    ],
    [
        {
            "name": "Algeciras",
            "latitude": 36.1311725,
            "longitude": -5.4473991,
            "country": "ES",
            "state": "Andalusia"
        },
        {
            "name": "Algeciras",
            "latitude": 2.5246661,
            "longitude": -75.316688,
            "country": "CO",
            "state": "Huila"
        },
        {
            "name": "Algeciras",
            "latitude": 11.415781,
            "longitude": 120.8136492,
            "country": "PH",
            "state": "Palawan"
        }
    ],
    [
        {
            "name": "Alicante",
            "latitude": 38.3436365,
            "longitude": -0.4881708,
            "country": "ES",
            "state": "Valencian Community"
        },
        {
            "name": "Sant Joan d'Alacant",
            "latitude": 38.4014162,
            "longitude": -0.4359957,
            "country": "ES",
            "state": "Valencian Community"
        }
    ],
    [
        {
            "name": "Almeria",
            "latitude": 36.8414197,
            "longitude": -2.4628135,
            "country": "ES",
            "state": "Andalusia"
        }
    ],
    [
        {
            "name": "Arrecife",
            "latitude": 28.9639681,
            "longitude": -13.5499014,
            "country": "ES"
        },
        {
            "name": "Arrecife",
            "latitude": -14.3998289,
            "longitude": -41.6412628,
            "country": "BR",
            "state": "Bahia"
        },
        {
            "name": "Arrecife",
            "latitude": -14.0155754,
            "longitude": -42.031185,
            "country": "BR",
            "state": "Bahia"
        },
        {
            "name": "Arrecife",
            "latitude": -13.8248494,
            "longitude": -41.4880443,
            "country": "BR",
            "state": "Bahia"
        },
        {
            "name": "Arrecife",
            "latitude": -5.2184856,
            "longitude": -41.4515019,
            "country": "BR",
            "state": "Piauí"
        }
    ],
    [
        {
            "name": "Avilés",
            "latitude": 43.5554436,
            "longitude": -5.9222466,
            "country": "ES",
            "state": "Asturias"
        },
        {
            "name": "Avilés",
            "latitude": 37.9064401,
            "longitude": -1.7975927,
            "country": "ES",
            "state": "Region of Murcia"
        }
    ],
    [
        {
            "name": "Badajoz",
            "latitude": 38.88964355,
            "longitude": -6.980142450723942,
            "country": "ES",
            "state": "Extremadura"
        },
        {
            "name": "Badajoz",
            "latitude": 38.8780585,
            "longitude": -6.9702048,
            "country": "ES",
            "state": "Extremadura"
        }
    ],
    [
        {
            "name": "Barcelona",
            "latitude": 41.3828939,
            "longitude": 2.1774322,
            "country": "ES",
            "state": "Catalonia"
        }
    ],
    [
        {
            "name": "Benidorm",
            "latitude": 38.5406255,
            "longitude": -0.1290929,
            "country": "ES",
            "state": "Valencian Community"
        }
    ],
    [
        {
            "name": "Bilbao",
            "latitude": 43.2630018,
            "longitude": -2.9350039,
            "country": "ES",
            "state": "Autonomous Community of the Basque Country"
        },
        {
            "name": "Bilbao",
            "latitude": 43.2521707,
            "longitude": -2.9353880244019326,
            "country": "ES",
            "state": "Autonomous Community of the Basque Country"
        },
        {
            "name": "Bilbao",
            "latitude": -1.46225655,
            "longitude": -78.48718274829051,
            "country": "EC",
            "state": "Chimborazo"
        },
        {
            "name": "Bilbao",
            "latitude": 3.2745212,
            "longitude": -75.7470637,
            "country": "CO",
            "state": "Tolima"
        },
        {
            "name": "Bilbao",
            "latitude": 4.7521615,
            "longitude": -74.1167893,
            "country": "CO"
        }
    ],
    [
        {
            "name": "Burgos",
            "latitude": 42.343926,
            "longitude": -3.696977,
            "country": "ES",
            "state": "Castile and León"
        }
    ],
    [
        {
            "name": "Cáceres",
            "latitude": 39.4745175,
            "longitude": -6.3716761,
            "country": "ES",
            "state": "Extremadura"
        },
        {
            "name": "Cáceres",
            "latitude": 39.4020024,
            "longitude": -6.454580525853476,
            "country": "ES",
            "state": "Extremadura"
        },
        {
            "name": "10005",
            "latitude": 39.483284,
            "longitude": -6.371316801999438,
            "country": ""
        },
        {
            "name": "Cáceres",
            "latitude": 40.9509009,
            "longitude": -4.0604512,
            "country": "ES",
            "state": "Castile and León"
        }
    ],
    [
        {
            "name": "Cádiz",
            "latitude": 36.5297438,
            "longitude": -6.2928976,
            "country": "ES",
            "state": "Andalusia"
        }
    ],
    [
        {
            "name": "Cartagena",
            "latitude": 10.4195841,
            "longitude": -75.5271224,
            "country": "CO",
            "state": "Bolívar"
        },
        {
            "name": "Cartagena",
            "latitude": 37.6019353,
            "longitude": -0.9841152,
            "country": "ES",
            "state": "Region of Murcia"
        },
        {
            "name": "Cartagena",
            "latitude": -33.5468491,
            "longitude": -71.6031708,
            "country": "CL",
            "state": "Valparaiso Region"
        },
        {
            "name": "Cartagena",
            "latitude": 9.6871894,
            "longitude": -73.2621745,
            "country": "CO",
            "state": "Cesar"
        },
        {
            "name": "Cartagena",
            "latitude": 22.4260369,
            "longitude": -80.4587791,
            "country": "CU",
            "state": "Cienfuegos"
        }
    ],
    [
        {
            "name": "Castelló de la Plana",
            "latitude": 39.9860347,
            "longitude": -0.0377354,
            "country": "ES",
            "state": "Valencian Community"
        }
    ],
    [
        {
            "name": "Ciudad Real",
            "latitude": 38.9854201,
            "longitude": -3.9285138,
            "country": "ES",
            "state": "Castile-La Mancha"
        }
    ],
    [
        {
            "name": "Cordoba",
            "latitude": -31.4173391,
            "longitude": -64.183319,
            "country": "AR",
            "state": "Córdoba"
        },
        {
            "name": "Córdoba",
            "latitude": -31.6453518,
            "longitude": -64.4294469,
            "country": "AR",
            "state": "Córdoba"
        },
        {
            "name": "Cordoba",
            "latitude": -27.7780432,
            "longitude": -67.2358164,
            "country": "AR",
            "state": "Catamarca"
        }
    ],
    [
        {
            "name": "Coslada",
            "latitude": 40.423802,
            "longitude": -3.5552882,
            "country": "ES",
            "state": "Community of Madrid"
        }
    ],
    [
        {
            "name": "Dos Hermanas",
            "latitude": 37.283689,
            "longitude": -5.9226718,
            "country": "ES",
            "state": "Andalusia"
        },
        {
            "name": "Dos Hermanas",
            "latitude": -54.4871103,
            "longitude": -69.1981516,
            "country": "CL",
            "state": "Region of Magallanes and Chilean Antarctica"
        },
        {
            "name": "Dos Hermanas",
            "latitude": 10.7412049,
            "longitude": 123.0370226,
            "country": "PH",
            "state": "Negros Occidental"
        },
        {
            "name": "Dos Hermanas",
            "latitude": -27.3207138,
            "longitude": -70.5263772,
            "country": "CL",
            "state": "Atacama Region"
        },
        {
            "name": "Dos Hermanas",
            "latitude": 20.8225044,
            "longitude": -76.2108386,
            "country": "CU",
            "state": "Holguín"
        }
    ],
    [
        {
            "name": "Elx / Elche",
            "latitude": 38.2653307,
            "longitude": -0.6988391,
            "country": "ES",
            "state": "Valencian Community"
        }
    ],
    [
        {
            "name": "Elda",
            "latitude": 38.4789671,
            "longitude": -0.7956759,
            "country": "ES",
            "state": "Valencian Community"
        },
        {
            "name": "Elda",
            "latitude": 64.1160413,
            "longitude": 11.2998863,
            "country": "NO"
        },
        {
            "name": "Elda",
            "latitude": 64.1796119,
            "longitude": 11.2207775,
            "country": "NO"
        },
        {
            "name": "Elda",
            "latitude": 61.4630556,
            "longitude": 7.0357111,
            "country": "NO"
        },
        {
            "name": "Elda",
            "latitude": 68.8244641,
            "longitude": 16.1035666,
            "country": "NO"
        }
    ],
    [
        {
            "name": "Ferrol",
            "latitude": 43.4846862,
            "longitude": -8.233162,
            "country": "ES",
            "state": "Galicia"
        },
        {
            "name": "Ferrol",
            "latitude": 12.3374838,
            "longitude": 121.9396357,
            "country": "PH",
            "state": "Romblon"
        },
        {
            "name": "Ferrol",
            "latitude": -9.1394444,
            "longitude": -78.6208333,
            "country": "PE"
        },
        {
            "name": "Ferrol",
            "latitude": 43.4889242,
            "longitude": -8.2230031,
            "country": "ES",
            "state": "Galicia"
        },
        {
            "name": "Ferrol",
            "latitude": 38.1087403,
            "longitude": -79.2853133,
            "country": "US",
            "state": "Virginia"
        }
    ],
    [
        {
            "name": "Gandia",
            "latitude": 38.9675925,
            "longitude": -0.1803423,
            "country": "ES",
            "state": "Valencian Community"
        },
        {
            "name": "Gandia",
            "latitude": 20.7635378,
            "longitude": 85.8007764,
            "country": "IN",
            "state": "Odisha"
        },
        {
            "name": "Gandia",
            "latitude": 43.3982113,
            "longitude": -2.9404133,
            "country": "ES",
            "state": "Autonomous Community of the Basque Country"
        },
        {
            "name": "Gandia",
            "latitude": 43.3859298,
            "longitude": -7.7273157,
            "country": "ES",
            "state": "Galicia"
        }
    ],
    [
        {
            "name": "Getafe",
            "latitude": 40.3081807,
            "longitude": -3.7302679,
            "country": "ES",
            "state": "Community of Madrid"
        },
        {
            "name": "Getafe",
            "latitude": 10.1497111,
            "longitude": 124.1535145,
            "country": "PH",
            "state": "Bohol"
        }
    ],
    [
        {
            "name": "Gijón/Xixón",
            "latitude": 43.5449422,
            "longitude": -5.66275,
            "country": "ES",
            "state": "Asturias"
        }
    ],
    [
        {
            "name": "Girona",
            "latitude": 41.9793006,
            "longitude": 2.8199439,
            "country": "ES",
            "state": "Catalonia"
        },
        {
            "name": "Girona",
            "latitude": 37.6961792,
            "longitude": -1.8858093,
            "country": "ES",
            "state": "Region of Murcia"
        }
    ],
    [
        {
            "name": "Granada",
            "latitude": 37.1734995,
            "longitude": -3.5995337,
            "country": "ES",
            "state": "Andalusia"
        }
    ],
    [
        {
            "name": "Granollers",
            "latitude": 41.6079555,
            "longitude": 2.2876008,
            "country": "ES",
            "state": "Catalonia"
        },
        {
            "name": "Granollers de la Plana",
            "latitude": 41.9767671,
            "longitude": 2.2746374,
            "country": "ES",
            "state": "Catalonia"
        },
        {
            "name": "Granollers",
            "latitude": 41.8338915,
            "longitude": 1.2559725,
            "country": "ES",
            "state": "Catalonia"
        }
    ],
    [
        {
            "name": "Guadalajara",
            "latitude": 40.6326979,
            "longitude": -3.1646067,
            "country": "ES",
            "state": "Castile-La Mancha"
        }
    ],
    [
        {
            "name": "Jaén",
            "latitude": 37.7728858,
            "longitude": -3.7883289,
            "country": "ES",
            "state": "Andalusia"
        }
    ],
    [
        {
            "name": "Jerez",
            "latitude": 36.6816936,
            "longitude": -6.1377402,
            "country": "ES",
            "state": "Andalusia"
        }
    ],
    [
        {
            "name": "Las Palmas de Gran Canaria",
            "latitude": 28.1288694,
            "longitude": -15.4349015,
            "country": "ES"
        },
        {
            "name": "Las Palmas",
            "latitude": 28.3472919,
            "longitude": -16.8451184,
            "country": "ES"
        },